[
  {
    "id": 1759911038194,
    "location": {
      "lat": 10.934602106671807,
      "lng": 76.74542399440729
    },
    "notes": "jerem",
    "timestamp": "2025-10-08T13:40:38.197121",
    "status": "approved",
    "image_filename": "report_1759911038194_20a84e7c.jpeg",
    "original_filename": "shawnui.jpg",
    "approved_at": "2025-10-08T13:41:17.914897"
  },
  {
    "id": 1759911063841,
    "location": {
      "lat": 10.935550169377938,
      "lng": 76.7445438703226
    },
    "notes": "agsae",
    "timestamp": "2025-10-08T13:41:03.842938",
    "status": "approved",
    "image_filename": "report_1759911063841_fb5e9ccd.png",
    "original_filename": "diagram-export-9-29-2025-9_45_10-PM.png",
    "approved_at": "2025-10-08T13:41:48.444885"
  },
  {
    "id": 1759911467735,
    "location": {
      "lat": 10.93576540290192,
      "lng": 76.74520894854618
    },
    "notes": "jerem",
    "timestamp": "2025-10-08T13:47:47.738573",
    "status": "approved",
    "image_filename": "report_1759911467735_ec696918.jpeg",
    "original_filename": "shawnui.jpg",
    "approved_at": "2025-10-08T13:47:53.921140"
  },
  {
    "id": 1759912653947,
    "location": {
      "lat": 10.9344,
      "lng": 76.7461
    },
    "notes": "jebaz",
    "timestamp": "2025-10-08T14:07:33.951493",
    "status": "approved",
    "image_filename": "report_1759912653947_08926f53.jpeg",
    "original_filename": "image (1).jpg",
    "approved_at": "2025-10-08T14:07:39.506592"
  },
  {
    "id": 1759912938369,
    "location": {
      "lat": 10.935002400184096,
      "lng": 76.74516639711423
    },
    "notes": "paul",
    "timestamp": "2025-10-08T14:12:18.380853",
    "status": "approved",
    "image_filename": "report_1759912938369_ae78bd79.jpeg",
    "original_filename": "J1.jpg",
    "approved_at": "2025-10-08T14:12:24.387190"
  },
  {
    "id": 1759913449084,
    "location": {
      "lat": 10.934749583291827,
      "lng": 76.74555279305383
    },
    "notes": "stanley",
    "timestamp": "2025-10-08T14:20:49.085623",
    "status": "approved",
    "image_filename": "report_1759913449084_e9c21b21.png",
    "original_filename": "diagram-export-9-29-2025-9_30_00-PM.png",
    "approved_at": "2025-10-08T14:20:59.820228"
  },
  {
    "id": 1759913636440,
    "location": {
      "lat": 10.9344,
      "lng": 76.7461
    },
    "notes": "hi",
    "timestamp": "2025-10-08T14:23:56.442752",
    "status": "reported",
    "image_filename": "report_1759913636440_bc157d28.jpeg",
    "original_filename": "WhatsApp Image 2025-09-14 at 19.35.56_291c98b2.jpg"
  },
  {
    "id": 1759913694976,
    "location": {
      "lat": 10.9344,
      "lng": 76.7461
    },
    "notes": "john",
    "timestamp": "2025-10-08T14:24:54.979648",
    "status": "approved",
    "image_filename": "report_1759913694976_762417c2.png",
    "original_filename": "diagram-export-9-29-2025-9_30_00-PM.png",
    "approved_at": "2025-10-08T14:25:01.598142"
  },
  {
    "id": 1759914430489,
    "location": {
      "lat": 10.936577947555795,
      "lng": 76.74224696551045
    },
    "notes": "hihiihihi",
    "timestamp": "2025-10-08T14:37:10.491082",
    "status": "approved",
    "image_filename": "report_1759914430489_3404bbcd.jpeg",
    "original_filename": "Red_Color.jpg",
    "approved_at": "2025-10-08T14:37:17.573196"
  },
  {
    "id": 1759916965317,
    "location": {
      "lat": 10.935381625118366,
      "lng": 76.74570305814149
    },
    "notes": "",
    "timestamp": "2025-10-08T15:19:25.318555",
    "status": "approved",
    "image_filename": "report_1759916965317_367eb167.png",
    "original_filename": "Tsuno Technologies Logo.png",
    "approved_at": "2025-10-08T15:19:32.871554"
  },
  {
    "id": 1759931445422,
    "location": {
      "lat": 10.934555417128452,
      "lng": 76.74424409866334
    },
    "notes": "ffhebh",
    "timestamp": "2025-10-08T19:20:45.424062",
    "status": "approved",
    "image_filename": "report_1759931445422_29052194.jpeg",
    "original_filename": "0f3c6ba5adb3aa5023c131751d298810d6a8d923ff4212ee90de0d1951285705.jpg",
    "approved_at": "2025-10-08T19:21:39.491590"
  },
  {
    "id": 1759935440122,
    "location": {
      "lat": 10.9344,
      "lng": 76.7461
    },
    "notes": "lol",
    "timestamp": "2025-10-08T20:27:20.125286",
    "status": "approved",
    "image_filename": "report_1759935440122_1221decf.jpeg",
    "original_filename": "2d9257d02cb714ebbac01d9f515c29dad9a0026ab19fa95e3446a36c500c0847.jpg",
    "approved_at": "2025-10-08T20:27:28.571634"
  }
]